{  
    "hotel":
    {  
        "1":{  
            "Name":"SpringHill Suites Sacramento Roseville",
            "Rating":3,
            "Address1":"10593 Fairway Dr",
            "Address2":"",
            "City":"Roseville",
            "State":"CA",
            "Zip":95765,
            "Phone":"(916) 782-2989",
            "Latitude":38.7952177,
            "Longitude":-121.3632966,
            "DisplayImage":"img/h_1.jpg","icons":"img/l_1.jpg",
            "fromdate":"1477765800",
            "todate":"1478111400"
        },
        "2":{  
            "Name":"Fairfield Inn & Suites Sacramento Elk Grove",
            "Rating":2,
            "Address1":"8058 Orchard Loop Ln",
            "Address2":"",
            "City":"Elk Grove",
            "State":"CO",
            "Zip":95624,
            "Phone":0,
            "Latitude":38.4549012,
            "Longitude":-121.477788,
            "DisplayImage":"img/h_2.jpg",
            "fromdate":"1477765800",
            "todate":"1478111400"
        },
        "3":{  
            "Name":"Courtyard Sacramento Midtown",
            "Rating":3,
            "Address1":"4422 Y St",
            "Address2":"",
            "City":"Sacramento",
            "State":"CS",
            "Zip":95817,
            "Phone":0,
            "Latitude":38.5520671,
            "Longitude":-121.524234,
            "DisplayImage":"img/h_3.jpg",
            "fromdate":"1477765800",
            "todate":"1478111400"
        },
        "4":{  
            "Name":"Courtyard Sacramento Airport Natomas",
            "Rating":3,
            "Address1":"2101 River Plaza Dr",
            "Address2":"",
            "City":"Sacramento",
            "State":"CC",
            "Zip":95833,
            "Phone":"(916) 922-1120",
            "Latitude":38.6052531,
            "Longitude":-121.581428,
            "DisplayImage":"img/h_1.jpg","icons":"img/l_1.jpg",
            "fromdate":"1477765800",
            "todate":"1478111400"
        },
        "5":{  
            "Name":"Fairfield Inn Sacramento Cal Expo",
            "Rating":3,
            "Address1":"1780 Tribute Rd",
            "Address2":"",
            "City":"Sacramento",
            "State":"AA",
            "Zip":95815,
            "Phone":"(916) 920-5300",
            "Latitude":38.5967961,
            "Longitude":-121.516802,
            "DisplayImage":"img/h_2.jpg",
            "fromdate":"1477765800",
            "todate":"1478111400"
        },
        "h6":{  
            "Name":"Courtyard Sacramento Rancho Cordova",
            "Rating":3,
            "Address1":"10683 White Rock Rd",
            "Address2":"",
            "City":"Rancho Cordova",
            "State":"CP",
            "Zip":95670,
            "Phone":"(916) 638-3800",
            "Latitude":38.5876275,
            "Longitude":-121.3601292,
            "DisplayImage":"img/h_1.jpg","icons":"img/l_1.jpg",
            "fromdate":"1477765800",
            "todate":"1478111400"
        },
        "7":{  
            "Name":"SpringHill Suites Sacramento Roseville",
            "Rating":3,
            "Address1":"10593 Fairway Dr",
            "Address2":"",
            "City":"Roseville",
            "State":"CA",
            "Zip":95765,
            "Phone":"(916) 782-2989",
            "Latitude":38.7952177,
            "Longitude":-121.3632966,
            "DisplayImage":"img/h_1.jpg","icons":"img/l_1.jpg",
            "fromdate":"1477765800",
            "todate":"1478111400"
        },
        "8":{  
            "Name":"Fairfield Inn & Suites Sacramento Elk Grove",
            "Rating":2,
            "Address1":"8058 Orchard Loop Ln",
            "Address2":"",
            "City":"Elk Grove",
            "State":"CO",
            "Zip":95624,
            "Phone":0,
            "Latitude":38.4549012,
            "Longitude":-121.477788,
            "DisplayImage":"img/h_2.jpg",
            "fromdate":"1477765800",
            "todate":"1478111400"
        },
        "9":{  
            "Name":"Courtyard Sacramento Midtown",
            "Rating":3,
            "Address1":"4422 Y St",
            "Address2":"",
            "City":"Sacramento",
            "State":"CS",
            "Zip":95817,
            "Phone":0,
            "Latitude":38.5520671,
            "Longitude":-121.524234,
            "DisplayImage":"img/h_3.jpg",
            "fromdate":"1477765800",
            "todate":"1478111400"
        },
        "10":{  
            "Name":"Courtyard Sacramento Airport Natomas",
            "Rating":3,
            "Address1":"2101 River Plaza Dr",
            "Address2":"",
            "City":"Sacramento",
            "State":"CC",
            "Zip":95833,
            "Phone":"(916) 922-1120",
            "Latitude":38.6052531,
            "Longitude":-121.581428,
            "DisplayImage":"img/h_1.jpg","icons":"img/l_1.jpg",
            "fromdate":"1477765800",
            "todate":"1478111400"
        },
        "11":{  
            "Name":"Fairfield Inn Sacramento Cal Expo",
            "Rating":3,
            "Address1":"1780 Tribute Rd",
            "Address2":"",
            "City":"Sacramento",
            "State":"AA",
            "Zip":95815,
            "Phone":"(916) 920-5300",
            "Latitude":38.5967961,
            "Longitude":-121.516802,
            "DisplayImage":"img/h_2.jpg",
            "fromdate":"1477765800",
            "todate":"1478111400"
        },
        "12":{  
            "Name":"Courtyard Sacramento Rancho Cordova",
            "Rating":3,
            "Address1":"10683 White Rock Rd",
            "Address2":"",
            "City":"Rancho Cordova",
            "State":"CP",
            "Zip":95670,
            "Phone":"(916) 638-3800",
            "Latitude":38.5876275,
            "Longitude":-121.3601292,
            "DisplayImage":"img/h_1.jpg","icons":"img/l_1.jpg",
            "fromdate":"1477765800",
            "todate":"1478111400"
        },
        "13":{  
            "Name":"SpringHill Suites Sacramento Roseville",
            "Rating":3,
            "Address1":"10593 Fairway Dr",
            "Address2":"",
            "City":"Roseville",
            "State":"CA",
            "Zip":95765,
            "Phone":"(916) 782-2989",
            "Latitude":38.7952177,
            "Longitude":-121.3632966,
            "DisplayImage":"img/h_1.jpg","icons":"img/l_1.jpg",
            "fromdate":"1477765800",
            "todate":"1478111400"
        },
        "14":{  
            "Name":"Fairfield Inn & Suites Sacramento Elk Grove",
            "Rating":2,
            "Address1":"8058 Orchard Loop Ln",
            "Address2":"",
            "City":"Elk Grove",
            "State":"CO",
            "Zip":95624,
            "Phone":0,
            "Latitude":38.4549012,
            "Longitude":-121.477788,
            "DisplayImage":"img/h_2.jpg",
            "fromdate":"1477765800",
            "todate":"1478111400"
        },
        "15":{  
            "Name":"Courtyard Sacramento Midtown",
            "Rating":3,
            "Address1":"4422 Y St",
            "Address2":"",
            "City":"Sacramento",
            "State":"CS",
            "Zip":95817,
            "Phone":0,
            "Latitude":38.5520671,
            "Longitude":-121.524234,
            "DisplayImage":"img/h_3.jpg",
            "fromdate":"1477765800",
            "todate":"1478111400"
        },
        "16":{  
            "Name":"Courtyard Sacramento Airport Natomas",
            "Rating":3,
            "Address1":"2101 River Plaza Dr",
            "Address2":"",
            "City":"Sacramento",
            "State":"CC",
            "Zip":95833,
            "Phone":"(916) 922-1120",
            "Latitude":38.6052531,
            "Longitude":-121.581428,
            "DisplayImage":"img/h_1.jpg","icons":"img/l_1.jpg",
            "fromdate":"1477765800",
            "todate":"1478111400"
        },
        "17":{  
            "Name":"Fairfield Inn Sacramento Cal Expo",
            "Rating":3,
            "Address1":"1780 Tribute Rd",
            "Address2":"",
            "City":"Sacramento",
            "State":"AA",
            "Zip":95815,
            "Phone":"(916) 920-5300",
            "Latitude":38.5967961,
            "Longitude":-121.516802,
            "DisplayImage":"img/h_2.jpg",
            "fromdate":"1477765800",
            "todate":"1478111400"
        },
        "18":{  
            "Name":"Courtyard Sacramento Rancho Cordova",
            "Rating":3,
            "Address1":"10683 White Rock Rd",
            "Address2":"",
            "City":"Rancho Cordova",
            "State":"CP",
            "Zip":95670,
            "Phone":"(916) 638-3800",
            "Latitude":38.5876275,
            "Longitude":-121.3601292,
            "DisplayImage":"img/h_1.jpg","icons":"img/l_1.jpg",
            "fromdate":"1477765800",
            "todate":"1478111400"
        },
        "19":{  
            "Name":"SpringHill Suites Sacramento Roseville",
            "Rating":3,
            "Address1":"10593 Fairway Dr",
            "Address2":"",
            "City":"Roseville",
            "State":"CA",
            "Zip":95765,
            "Phone":"(916) 782-2989",
            "Latitude":38.7952177,
            "Longitude":-121.3632966,
            "DisplayImage":"img/h_1.jpg","icons":"img/l_1.jpg",
            "fromdate":"1477765800",
            "todate":"1478111400"
        },
        "20":{  
            "Name":"Fairfield Inn & Suites Sacramento Elk Grove",
            "Rating":2,
            "Address1":"8058 Orchard Loop Ln",
            "Address2":"",
            "City":"Elk Grove",
            "State":"CO",
            "Zip":95624,
            "Phone":0,
            "Latitude":38.4549012,
            "Longitude":-121.477788,
            "DisplayImage":"img/h_2.jpg",
            "fromdate":"1477765800",
            "todate":"1478111400"
        },
        "21":{  
            "Name":"Courtyard Sacramento Midtown",
            "Rating":3,
            "Address1":"4422 Y St",
            "Address2":"",
            "City":"Sacramento",
            "State":"CS",
            "Zip":95817,
            "Phone":0,
            "Latitude":38.5520671,
            "Longitude":-121.524234,
            "DisplayImage":"img/h_3.jpg",
            "fromdate":"1477765800",
            "todate":"1478111400"
        },
        "22":{  
            "Name":"Courtyard Sacramento Airport Natomas",
            "Rating":3,
            "Address1":"2101 River Plaza Dr",
            "Address2":"",
            "City":"Sacramento",
            "State":"CC",
            "Zip":95833,
            "Phone":"(916) 922-1120",
            "Latitude":38.6052531,
            "Longitude":-121.581428,
            "DisplayImage":"img/h_1.jpg","icons":"img/l_1.jpg",
            "fromdate":"1477765800",
            "todate":"1478111400"
        },
        "23":{  
            "Name":"Fairfield Inn Sacramento Cal Expo",
            "Rating":3,
            "Address1":"1780 Tribute Rd",
            "Address2":"",
            "City":"Sacramento",
            "State":"AA",
            "Zip":95815,
            "Phone":"(916) 920-5300",
            "Latitude":38.5967961,
            "Longitude":-121.516802,
            "DisplayImage":"img/h_2.jpg",
            "fromdate":"1477765800",
            "todate":"1478111400"
        },
        "24":{  
            "Name":"Courtyard Sacramento Rancho Cordova",
            "Rating":3,
            "Address1":"10683 White Rock Rd",
            "Address2":"",
            "City":"Rancho Cordova",
            "State":"CP",
            "Zip":95670,
            "Phone":"(916) 638-3800",
            "Latitude":38.5876275,
            "Longitude":-121.3601292,
            "DisplayImage":"img/h_1.jpg","icons":"img/l_1.jpg",
            "fromdate":"1477765800",
            "todate":"1478111400"
        }
    },
    "users":{
        "KUqicCz6nx9vXoV57xS":{  
            "Name":"Courtyard Sacramento Rancho Cordova",
            "Rating":3,
            "Address1":"10683 White Rock Rd",
            "Address2":"",
            "City":"Rancho Cordova",
            "State":"CP",
            "Zip":95670,
            "Phone":"(916) 638-3800",
            "Latitude":38.5876275,
            "Longitude":-121.3601292,
            "DisplayImage":"img/h_1.jpg","icons":"img/l_1.jpg",
            "fromdate":"1477765800",
            "todate":"1478111400"
        }
    },
    "teml_hotel_list":{
        "users":{
            "email":"temp_test@gmail.com",
            "password":"this.admin",
            "username":"test"
        }
    }
}