{  
   "hotel":{  
      "1":{  
         "Name":"Crowne Plaza Sacramento",
         "Rating":1,
         "Address1":"10593 Fairway Dr",
         "Address2":"",
         "City":"Sacramento",
         "State":"CA",
         "Zip":95765,
         "Phone":"(916) 782-2989",
         "Latitude":38.7952177,
         "Longitude":-121.3632966,
         "DisplayImage":"img/h_1.jpg",
         "LogoImage":"img/L_1.png",
         "fromdate":"1477765800",
         "todate":"1478111400"
      },
      "2":{  
         "Name":"Residence Inn Sacramento",
         "Rating":1,
         "Address1":"10593 Fairway Dr",
         "Address2":"",
         "City":"Sacramento",
         "State":"CA",
         "Zip":95765,
         "Phone":"(916) 782-2989",
         "Latitude":38.7952177,
         "Longitude":-121.3632966,
         "DisplayImage":"img/h_2.jpg",
         "LogoImage":"img/L_2.png",
         "fromdate":"1477765800",
         "todate":"1478111400"
      },
      "3":{  
         "Name":"Courtyard Sacramento",
         "Rating":1,
         "Address1":"10593 Fairway Dr",
         "Address2":"",
         "City":"Sacramento",
         "State":"CA",
         "Zip":95765,
         "Phone":"(916) 782-2989",
         "Latitude":38.7952177,
         "Longitude":-121.3632966,
         "DisplayImage":"img/h_3.jpg",
         "LogoImage":"img/L_3.png",
         "fromdate":"1477765800",
         "todate":"1478111400"
      },
      "4":{  
         "Name":"Crowne Plaza Sacramento",
         "Rating":1,
         "Address1":"10593 Fairway Dr",
         "Address2":"",
         "City":"Sacramento",
         "State":"CA",
         "Zip":95765,
         "Phone":"(916) 782-2989",
         "Latitude":38.7952177,
         "Longitude":-121.3632966,
         "DisplayImage":"img/h_1.jpg",
         "LogoImage":"img/L_1.png",
         "fromdate":"1477765800",
         "todate":"1478111400"
      },
      "5":{  
         "Name":"Crowne Plaza Sacramento",
         "Rating":2,
         "Address1":"10593 Fairway Dr",
         "Address2":"",
         "City":"Sacramento",
         "State":"CA",
         "Zip":95765,
         "Phone":"(916) 782-2989",
         "Latitude":38.7952177,
         "Longitude":-121.3632966,
         "DisplayImage":"img/h_1.jpg",
         "LogoImage":"img/L_1.png",
         "fromdate":"1477765800",
         "todate":"1478111400"
      },
      "6":{  
         "Name":"Residence Inn Sacramento",
         "Rating":2,
         "Address1":"10593 Fairway Dr",
         "Address2":"",
         "City":"Sacramento",
         "State":"CA",
         "Zip":95765,
         "Phone":"(916) 782-2989",
         "Latitude":38.7952177,
         "Longitude":-121.3632966,
         "DisplayImage":"img/h_2.jpg",
         "LogoImage":"img/L_2.png",
         "fromdate":"1477765800",
         "todate":"1478111400"
      },
      "7":{  
         "Name":"Crowne Plaza Sacramento",
         "Rating":2,
         "Address1":"10593 Fairway Dr",
         "Address2":"",
         "City":"Sacramento",
         "State":"CA",
         "Zip":95765,
         "Phone":"(916) 782-2989",
         "Latitude":38.7952177,
         "Longitude":-121.3632966,
         "DisplayImage":"img/h_1.jpg",
         "LogoImage":"img/L_1.png",
         "fromdate":"1477765800",
         "todate":"1478111400"
      },
      "8":{  
         "Name":"Crowne Plaza Sacramento",
         "Rating":3,
         "Address1":"10593 Fairway Dr",
         "Address2":"",
         "City":"Sacramento",
         "State":"CA",
         "Zip":95765,
         "Phone":"(916) 782-2989",
         "Latitude":38.7952177,
         "Longitude":-121.3632966,
         "DisplayImage":"img/h_1.jpg",
         "LogoImage":"img/L_1.png",
         "fromdate":"1477765800",
         "todate":"1478111400"
      },
      "9":{  
         "Name":"Residence Inn Sacramento",
         "Rating":3,
         "Address1":"10593 Fairway Dr",
         "Address2":"",
         "City":"Sacramento",
         "State":"CA",
         "Zip":95765,
         "Phone":"(916) 782-2989",
         "Latitude":38.7952177,
         "Longitude":-121.3632966,
         "DisplayImage":"img/h_2.jpg",
         "LogoImage":"img/L_2.png",
         "fromdate":"1477765800",
         "todate":"1478111400"
      },
      "10":{  
         "Name":"Courtyard Sacramento",
         "Rating":3,
         "Address1":"10593 Fairway Dr",
         "Address2":"",
         "City":"Sacramento",
         "State":"CA",
         "Zip":95765,
         "Phone":"(916) 782-2989",
         "Latitude":38.7952177,
         "Longitude":-121.3632966,
         "DisplayImage":"img/h_3.jpg",
         "LogoImage":"img/L_3.png",
         "fromdate":"1477765800",
         "todate":"1478111400"
      },
      "11":{  
         "Name":"Crowne Plaza Sacramento",
         "Rating":3,
         "Address1":"10593 Fairway Dr",
         "Address2":"",
         "City":"Sacramento",
         "State":"CA",
         "Zip":95765,
         "Phone":"(916) 782-2989",
         "Latitude":38.7952177,
         "Longitude":-121.3632966,
         "DisplayImage":"img/h_1.jpg",
         "LogoImage":"img/L_1.png",
         "fromdate":"1477765800",
         "todate":"1478111400"
      },
      "12":{  
         "Name":"Residence Inn Sacramento",
         "Rating":4,
         "Address1":"10593 Fairway Dr",
         "Address2":"",
         "City":"Sacramento",
         "State":"CA",
         "Zip":95765,
         "Phone":"(916) 782-2989",
         "Latitude":38.7952177,
         "Longitude":-121.3632966,
         "DisplayImage":"img/h_2.jpg",
         "LogoImage":"img/L_2.png",
         "fromdate":"1477765800",
         "todate":"1478111400"
      },
      "13":{  
         "Name":"Crowne Plaza Sacramento",
         "Rating":4,
         "Address1":"10593 Fairway Dr",
         "Address2":"",
         "City":"Sacramento",
         "State":"CA",
         "Zip":95765,
         "Phone":"(916) 782-2989",
         "Latitude":38.7952177,
         "Longitude":-121.3632966,
         "DisplayImage":"img/h_1.jpg",
         "LogoImage":"img/L_1.png",
         "fromdate":"1477765800",
         "todate":"1478111400"
      },
      "14":{  
         "Name":"Crowne Plaza Sacramento",
         "Rating":5,
         "Address1":"10593 Fairway Dr",
         "Address2":"",
         "City":"Sacramento",
         "State":"CA",
         "Zip":95765,
         "Phone":"(916) 782-2989",
         "Latitude":38.7952177,
         "Longitude":-121.3632966,
         "DisplayImage":"img/h_1.jpg",
         "LogoImage":"img/L_1.png",
         "fromdate":"1477765800",
         "todate":"1478111400"
      },
      "15":{  
         "Name":"Residence Inn Sacramento",
         "Rating":5,
         "Address1":"10593 Fairway Dr",
         "Address2":"",
         "City":"Sacramento",
         "State":"CA",
         "Zip":95765,
         "Phone":"(916) 782-2989",
         "Latitude":38.7952177,
         "Longitude":-121.3632966,
         "DisplayImage":"img/h_2.jpg",
         "LogoImage":"img/L_2.png",
         "fromdate":"1477765800",
         "todate":"1478111400"
      },
      "16":{  
         "Name":"Courtyard Sacramento",
         "Rating":5,
         "Address1":"10593 Fairway Dr",
         "Address2":"",
         "City":"Sacramento",
         "State":"CA",
         "Zip":95765,
         "Phone":"(916) 782-2989",
         "Latitude":38.7952177,
         "Longitude":-121.3632966,
         "DisplayImage":"img/h_3.jpg",
         "LogoImage":"img/L_3.png",
         "fromdate":"1477765800",
         "todate":"1478111400"
      },
      "17":{  
         "Name":"Crowne Plaza Sacramento",
         "Rating":5,
         "Address1":"10593 Fairway Dr",
         "Address2":"",
         "City":"Sacramento",
         "State":"CA",
         "Zip":95765,
         "Phone":"(916) 782-2989",
         "Latitude":38.7952177,
         "Longitude":-121.3632966,
         "DisplayImage":"img/h_1.jpg",
         "LogoImage":"img/L_1.png",
         "fromdate":"1477765800",
         "todate":"1478111400"
      },
      "18":{  
         "Name":"Residence Inn Miami",
         "Rating":1,
         "Address1":"11267 South Beach Wy",
         "Address2":"",
         "City":"Miami",
         "State":"FL",
         "Zip":95765,
         "Phone":"(916) 782-2989",
         "Latitude":38.7952177,
         "Longitude":-121.3632966,
         "DisplayImage":"img/h_2.jpg",
         "LogoImage":"img/L_2.png",
         "fromdate":"1477765800",
         "todate":"1478111400"
      },
      "19":{  
         "Name":"Courtyard Miami",
         "Rating":1,
         "Address1":"11267 South Beach Wy",
         "Address2":"",
         "City":"Miami",
         "State":"FL",
         "Zip":95765,
         "Phone":"(916) 782-2989",
         "Latitude":38.7952177,
         "Longitude":-121.3632966,
         "DisplayImage":"img/h_3.jpg",
         "LogoImage":"img/L_3.png",
         "fromdate":"1477765800",
         "todate":"1478111400"
      },
      "20":{  
         "Name":"Crowne Plaza Miami",
         "Rating":1,
         "Address1":"11267 South Beach Wy",
         "Address2":"",
         "City":"Miami",
         "State":"FL",
         "Zip":95765,
         "Phone":"(916) 782-2989",
         "Latitude":38.7952177,
         "Longitude":-121.3632966,
         "DisplayImage":"img/h_1.jpg",
         "LogoImage":"img/L_1.png",
         "fromdate":"1477765800",
         "todate":"1478111400"
      },
      "21":{  
         "Name":"Crowne Plaza Miami",
         "Rating":2,
         "Address1":"11267 South Beach Wy",
         "Address2":"",
         "City":"Miami",
         "State":"FL",
         "Zip":95765,
         "Phone":"(916) 782-2989",
         "Latitude":38.7952177,
         "Longitude":-121.3632966,
         "DisplayImage":"img/h_1.jpg",
         "LogoImage":"img/L_1.png",
         "fromdate":"1477765800",
         "todate":"1478111400"
      },
      "22":{  
         "Name":"Residence Inn Miami",
         "Rating":2,
         "Address1":"11267 South Beach Wy",
         "Address2":"",
         "City":"Miami",
         "State":"FL",
         "Zip":95765,
         "Phone":"(916) 782-2989",
         "Latitude":38.7952177,
         "Longitude":-121.3632966,
         "DisplayImage":"img/h_2.jpg",
         "LogoImage":"img/L_2.png",
         "fromdate":"1477765800",
         "todate":"1478111400"
      },
      "23":{  
         "Name":"Courtyard Miami",
         "Rating":2,
         "Address1":"11267 South Beach Wy",
         "Address2":"",
         "City":"Miami",
         "State":"FL",
         "Zip":95765,
         "Phone":"(916) 782-2989",
         "Latitude":38.7952177,
         "Longitude":-121.3632966,
         "DisplayImage":"img/h_3.jpg",
         "LogoImage":"img/L_3.png",
         "fromdate":"1477765800",
         "todate":"1478111400"
      },
      "24":{  
         "Name":"Crowne Plaza Miami",
         "Rating":2,
         "Address1":"11267 South Beach Wy",
         "Address2":"",
         "City":"Miami",
         "State":"FL",
         "Zip":95765,
         "Phone":"(916) 782-2989",
         "Latitude":38.7952177,
         "Longitude":-121.3632966,
         "DisplayImage":"img/h_1.jpg",
         "LogoImage":"img/L_1.png",
         "fromdate":"1477765800",
         "todate":"1478111400"
      },
      "25":{  
         "Name":"Crowne Plaza Miami",
         "Rating":3,
         "Address1":"11267 South Beach Wy",
         "Address2":"",
         "City":"Miami",
         "State":"FL",
         "Zip":95765,
         "Phone":"(916) 782-2989",
         "Latitude":38.7952177,
         "Longitude":-121.3632966,
         "DisplayImage":"img/h_1.jpg",
         "LogoImage":"img/L_1.png",
         "fromdate":"1477765800",
         "todate":"1478111400"
      },
      "26":{  
         "Name":"Residence Inn Miami",
         "Rating":3,
         "Address1":"11267 South Beach Wy",
         "Address2":"",
         "City":"Miami",
         "State":"FL",
         "Zip":95765,
         "Phone":"(916) 782-2989",
         "Latitude":38.7952177,
         "Longitude":-121.3632966,
         "DisplayImage":"img/h_2.jpg",
         "LogoImage":"img/L_2.png",
         "fromdate":"1477765800",
         "todate":"1478111400"
      },
      "27":{  
         "Name":"Courtyard Miami",
         "Rating":3,
         "Address1":"11267 South Beach Wy",
         "Address2":"",
         "City":"Miami",
         "State":"FL",
         "Zip":95765,
         "Phone":"(916) 782-2989",
         "Latitude":38.7952177,
         "Longitude":-121.3632966,
         "DisplayImage":"img/h_3.jpg",
         "LogoImage":"img/L_3.png",
         "fromdate":"1477765800",
         "todate":"1478111400"
      },
      "28":{  
         "Name":"Crowne Plaza Miami",
         "Rating":3,
         "Address1":"11267 South Beach Wy",
         "Address2":"",
         "City":"Miami",
         "State":"FL",
         "Zip":95765,
         "Phone":"(916) 782-2989",
         "Latitude":38.7952177,
         "Longitude":-121.3632966,
         "DisplayImage":"img/h_1.jpg",
         "LogoImage":"img/L_1.png",
         "fromdate":"1477765800",
         "todate":"1478111400"
      },
      "29":{  
         "Name":"Crowne Plaza Miami",
         "Rating":4,
         "Address1":"11267 South Beach Wy",
         "Address2":"",
         "City":"Miami",
         "State":"FL",
         "Zip":95765,
         "Phone":"(916) 782-2989",
         "Latitude":38.7952177,
         "Longitude":-121.3632966,
         "DisplayImage":"img/h_1.jpg",
         "LogoImage":"img/L_1.png",
         "fromdate":"1477765800",
         "todate":"1478111400"
      },
      "30":{  
         "Name":"Residence Inn Miami",
         "Rating":4,
         "Address1":"11267 South Beach Wy",
         "Address2":"",
         "City":"Miami",
         "State":"FL",
         "Zip":95765,
         "Phone":"(916) 782-2989",
         "Latitude":38.7952177,
         "Longitude":-121.3632966,
         "DisplayImage":"img/h_2.jpg",
         "LogoImage":"img/L_2.png",
         "fromdate":"1477765800",
         "todate":"1478111400"
      },
      "31":{  
         "Name":"Courtyard Miami",
         "Rating":4,
         "Address1":"11267 South Beach Wy",
         "Address2":"",
         "City":"Miami",
         "State":"FL",
         "Zip":95765,
         "Phone":"(916) 782-2989",
         "Latitude":38.7952177,
         "Longitude":-121.3632966,
         "DisplayImage":"img/h_3.jpg",
         "LogoImage":"img/L_3.png",
         "fromdate":"1477765800",
         "todate":"1478111400"
      },
      "32":{  
         "Name":"Crowne Plaza Miami",
         "Rating":4,
         "Address1":"11267 South Beach Wy",
         "Address2":"",
         "City":"Miami",
         "State":"FL",
         "Zip":95765,
         "Phone":"(916) 782-2989",
         "Latitude":38.7952177,
         "Longitude":-121.3632966,
         "DisplayImage":"img/h_1.jpg",
         "LogoImage":"img/L_1.png",
         "fromdate":"1477765800",
         "todate":"1478111400"
      },
      "33":{  
         "Name":"Crowne Plaza Miami",
         "Rating":5,
         "Address1":"11267 South Beach Wy",
         "Address2":"",
         "City":"Miami",
         "State":"FL",
         "Zip":95765,
         "Phone":"(916) 782-2989",
         "Latitude":38.7952177,
         "Longitude":-121.3632966,
         "DisplayImage":"img/h_1.jpg",
         "LogoImage":"img/L_1.png",
         "fromdate":"1477765800",
         "todate":"1478111400"
      },
      "34":{  
         "Name":"Residence Inn Miami",
         "Rating":5,
         "Address1":"11267 South Beach Wy",
         "Address2":"",
         "City":"Miami",
         "State":"FL",
         "Zip":95765,
         "Phone":"(916) 782-2989",
         "Latitude":38.7952177,
         "Longitude":-121.3632966,
         "DisplayImage":"img/h_2.jpg",
         "LogoImage":"img/L_2.png",
         "fromdate":"1477765800",
         "todate":"1478111400"
      },
      "35":{  
         "Name":"Courtyard Miami",
         "Rating":5,
         "Address1":"11267 South Beach Wy",
         "Address2":"",
         "City":"Miami",
         "State":"FL",
         "Zip":95765,
         "Phone":"(916) 782-2989",
         "Latitude":38.7952177,
         "Longitude":-121.3632966,
         "DisplayImage":"img/h_3.jpg",
         "LogoImage":"img/L_3.png",
         "fromdate":"1477765800",
         "todate":"1478111400"
      },
      "36":{  
         "Name":"Crowne Plaza Miami",
         "Rating":5,
         "Address1":"11267 South Beach Wy",
         "Address2":"",
         "City":"Miami",
         "State":"FL",
         "Zip":95765,
         "Phone":"(916) 782-2989",
         "Latitude":38.7952177,
         "Longitude":-121.3632966,
         "DisplayImage":"img/h_1.jpg",
         "LogoImage":"img/L_1.png",
         "fromdate":"1477765800",
         "todate":"1478111400"
      },
      "37":{  
         "Name":"Crowne Plaza Boston",
         "Rating":1,
         "Address1":"2356 Patriots Ln",
         "Address2":"",
         "City":"Boston",
         "State":"MA",
         "Zip":95765,
         "Phone":"(916) 782-2989",
         "Latitude":38.7952177,
         "Longitude":-121.3632966,
         "DisplayImage":"img/h_1.jpg",
         "LogoImage":"img/L_1.png",
         "fromdate":"1477765800",
         "todate":"1478111400"
      },
      "38":{  
         "Name":"Residence Inn Boston",
         "Rating":1,
         "Address1":"2356 Patriots Ln",
         "Address2":"",
         "City":"Boston",
         "State":"MA",
         "Zip":95765,
         "Phone":"(916) 782-2989",
         "Latitude":38.7952177,
         "Longitude":-121.3632966,
         "DisplayImage":"img/h_2.jpg",
         "LogoImage":"img/L_2.png",
         "fromdate":"1477765800",
         "todate":"1478111400"
      },
      "39":{  
         "Name":"Courtyard Boston",
         "Rating":1,
         "Address1":"2356 Patriots Ln",
         "Address2":"",
         "City":"Boston",
         "State":"MA",
         "Zip":95765,
         "Phone":"(916) 782-2989",
         "Latitude":38.7952177,
         "Longitude":-121.3632966,
         "DisplayImage":"img/h_3.jpg",
         "LogoImage":"img/L_3.png",
         "fromdate":"1477765800",
         "todate":"1478111400"
      },
      "40":{  
         "Name":"Crowne Plaza Boston",
         "Rating":1,
         "Address1":"2356 Patriots Ln",
         "Address2":"",
         "City":"Boston",
         "State":"MA",
         "Zip":95765,
         "Phone":"(916) 782-2989",
         "Latitude":38.7952177,
         "Longitude":-121.3632966,
         "DisplayImage":"img/h_1.jpg",
         "LogoImage":"img/L_1.png",
         "fromdate":"1477765800",
         "todate":"1478111400"
      },
      "41":{  
         "Name":"Crowne Plaza Boston",
         "Rating":2,
         "Address1":"2356 Patriots Ln",
         "Address2":"",
         "City":"Boston",
         "State":"MA",
         "Zip":95765,
         "Phone":"(916) 782-2989",
         "Latitude":38.7952177,
         "Longitude":-121.3632966,
         "DisplayImage":"img/h_1.jpg",
         "LogoImage":"img/L_1.png",
         "fromdate":"1477765800",
         "todate":"1478111400"
      },
      "42":{  
         "Name":"Residence Inn Boston",
         "Rating":2,
         "Address1":"2356 Patriots Ln",
         "Address2":"",
         "City":"Boston",
         "State":"MA",
         "Zip":95765,
         "Phone":"(916) 782-2989",
         "Latitude":38.7952177,
         "Longitude":-121.3632966,
         "DisplayImage":"img/h_2.jpg",
         "LogoImage":"img/L_2.png",
         "fromdate":"1477765800",
         "todate":"1478111400"
      },
      "43":{  
         "Name":"Courtyard Boston",
         "Rating":2,
         "Address1":"2356 Patriots Ln",
         "Address2":"",
         "City":"Boston",
         "State":"MA",
         "Zip":95765,
         "Phone":"(916) 782-2989",
         "Latitude":38.7952177,
         "Longitude":-121.3632966,
         "DisplayImage":"img/h_3.jpg",
         "LogoImage":"img/L_3.png",
         "fromdate":"1477765800",
         "todate":"1478111400"
      },
      "44":{  
         "Name":"Crowne Plaza Boston",
         "Rating":2,
         "Address1":"2356 Patriots Ln",
         "Address2":"",
         "City":"Boston",
         "State":"MA",
         "Zip":95765,
         "Phone":"(916) 782-2989",
         "Latitude":38.7952177,
         "Longitude":-121.3632966,
         "DisplayImage":"img/h_1.jpg",
         "LogoImage":"img/L_1.png",
         "fromdate":"1477765800",
         "todate":"1478111400"
      },
      "45":{  
         "Name":"Crowne Plaza Boston",
         "Rating":3,
         "Address1":"2356 Patriots Ln",
         "Address2":"",
         "City":"Boston",
         "State":"MA",
         "Zip":95765,
         "Phone":"(916) 782-2989",
         "Latitude":38.7952177,
         "Longitude":-121.3632966,
         "DisplayImage":"img/h_1.jpg",
         "LogoImage":"img/L_1.png",
         "fromdate":"1477765800",
         "todate":"1478111400"
      },
      "46":{  
         "Name":"Residence Inn Boston",
         "Rating":3,
         "Address1":"2356 Patriots Ln",
         "Address2":"",
         "City":"Boston",
         "State":"MA",
         "Zip":95765,
         "Phone":"(916) 782-2989",
         "Latitude":38.7952177,
         "Longitude":-121.3632966,
         "DisplayImage":"img/h_2.jpg",
         "LogoImage":"img/L_2.png",
         "fromdate":"1477765800",
         "todate":"1478111400"
      },
      "47":{  
         "Name":"Courtyard Boston",
         "Rating":3,
         "Address1":"2356 Patriots Ln",
         "Address2":"",
         "City":"Boston",
         "State":"MA",
         "Zip":95765,
         "Phone":"(916) 782-2989",
         "Latitude":38.7952177,
         "Longitude":-121.3632966,
         "DisplayImage":"img/h_3.jpg",
         "LogoImage":"img/L_3.png",
         "fromdate":"1477765800",
         "todate":"1478111400"
      },
      "48":{  
         "Name":"Crowne Plaza Boston",
         "Rating":3,
         "Address1":"2356 Patriots Ln",
         "Address2":"",
         "City":"Boston",
         "State":"MA",
         "Zip":95765,
         "Phone":"(916) 782-2989",
         "Latitude":38.7952177,
         "Longitude":-121.3632966,
         "DisplayImage":"img/h_1.jpg",
         "LogoImage":"img/L_1.png",
         "fromdate":"1477765800",
         "todate":"1478111400"
      },
      "49":{  
         "Name":"Crowne Plaza Boston",
         "Rating":4,
         "Address1":"2356 Patriots Ln",
         "Address2":"",
         "City":"Boston",
         "State":"MA",
         "Zip":95765,
         "Phone":"(916) 782-2989",
         "Latitude":38.7952177,
         "Longitude":-121.3632966,
         "DisplayImage":"img/h_1.jpg",
         "LogoImage":"img/L_1.png",
         "fromdate":"1477765800",
         "todate":"1478111400"
      },
      "50":{  
         "Name":"Residence Inn Boston",
         "Rating":4,
         "Address1":"2356 Patriots Ln",
         "Address2":"",
         "City":"Boston",
         "State":"MA",
         "Zip":95765,
         "Phone":"(916) 782-2989",
         "Latitude":38.7952177,
         "Longitude":-121.3632966,
         "DisplayImage":"img/h_2.jpg",
         "LogoImage":"img/L_2.png",
         "fromdate":"1477765800",
         "todate":"1478111400"
      },
      "51":{  
         "Name":"Courtyard Boston",
         "Rating":4,
         "Address1":"2356 Patriots Ln",
         "Address2":"",
         "City":"Boston",
         "State":"MA",
         "Zip":95765,
         "Phone":"(916) 782-2989",
         "Latitude":38.7952177,
         "Longitude":-121.3632966,
         "DisplayImage":"img/h_3.jpg",
         "LogoImage":"img/L_3.png",
         "fromdate":"1477765800",
         "todate":"1478111400"
      },
      "52":{  
         "Name":"Crowne Plaza Boston",
         "Rating":4,
         "Address1":"2356 Patriots Ln",
         "Address2":"",
         "City":"Boston",
         "State":"MA",
         "Zip":95765,
         "Phone":"(916) 782-2989",
         "Latitude":38.7952177,
         "Longitude":-121.3632966,
         "DisplayImage":"img/h_1.jpg",
         "LogoImage":"img/L_1.png",
         "fromdate":"1477765800",
         "todate":"1478111400"
      },
      "53":{  
         "Name":"Crowne Plaza Boston",
         "Rating":5,
         "Address1":"2356 Patriots Ln",
         "Address2":"",
         "City":"Boston",
         "State":"MA",
         "Zip":95765,
         "Phone":"(916) 782-2989",
         "Latitude":38.7952177,
         "Longitude":-121.3632966,
         "DisplayImage":"img/h_1.jpg",
         "LogoImage":"img/L_1.png",
         "fromdate":"1477765800",
         "todate":"1478111400"
      },
      "54":{  
         "Name":"Residence Inn Boston",
         "Rating":5,
         "Address1":"2356 Patriots Ln",
         "Address2":"",
         "City":"Boston",
         "State":"MA",
         "Zip":95765,
         "Phone":"(916) 782-2989",
         "Latitude":38.7952177,
         "Longitude":-121.3632966,
         "DisplayImage":"img/h_2.jpg",
         "LogoImage":"img/L_2.png",
         "fromdate":"1477765800",
         "todate":"1478111400"
      },
      "55":{  
         "Name":"Courtyard Boston",
         "Rating":5,
         "Address1":"2356 Patriots Ln",
         "Address2":"",
         "City":"Boston",
         "State":"MA",
         "Zip":95765,
         "Phone":"(916) 782-2989",
         "Latitude":38.7952177,
         "Longitude":-121.3632966,
         "DisplayImage":"img/h_3.jpg",
         "LogoImage":"img/L_3.png",
         "fromdate":"1477765800",
         "todate":"1478111400"
      },
      "56":{  
         "Name":"Crowne Plaza Boston",
         "Rating":5,
         "Address1":"2356 Patriots Ln",
         "Address2":"",
         "City":"Boston",
         "State":"MA",
         "Zip":95765,
         "Phone":"(916) 782-2989",
         "Latitude":38.7952177,
         "Longitude":-121.3632966,
         "DisplayImage":"img/h_1.jpg",
         "LogoImage":"img/L_1.png",
         "fromdate":"1477765800",
         "todate":"1478111400"
      },
      "57":{  
         "Name":"Crowne Plaza Chicago",
         "Rating":1,
         "Address1":"3133 Windy Circle Rd",
         "Address2":"",
         "City":"Chicago",
         "State":"IL",
         "Zip":95765,
         "Phone":"(916) 782-2989",
         "Latitude":38.7952177,
         "Longitude":-121.3632966,
         "DisplayImage":"img/h_1.jpg",
         "LogoImage":"img/L_1.png",
         "fromdate":"1477765800",
         "todate":"1478111400"
      },
      "58":{  
         "Name":"Residence Inn Chicago",
         "Rating":1,
         "Address1":"3133 Windy Circle Rd",
         "Address2":"",
         "City":"Chicago",
         "State":"IL",
         "Zip":95765,
         "Phone":"(916) 782-2989",
         "Latitude":38.7952177,
         "Longitude":-121.3632966,
         "DisplayImage":"img/h_2.jpg",
         "LogoImage":"img/L_2.png",
         "fromdate":"1477765800",
         "todate":"1478111400"
      },
      "59":{  
         "Name":"Courtyard Chicago",
         "Rating":1,
         "Address1":"3133 Windy Circle Rd",
         "Address2":"",
         "City":"Chicago",
         "State":"IL",
         "Zip":95765,
         "Phone":"(916) 782-2989",
         "Latitude":38.7952177,
         "Longitude":-121.3632966,
         "DisplayImage":"img/h_3.jpg",
         "LogoImage":"img/L_3.png",
         "fromdate":"1477765800",
         "todate":"1478111400"
      },
      "60":{  
         "Name":"Crowne Plaza Chicago",
         "Rating":1,
         "Address1":"3133 Windy Circle Rd",
         "Address2":"",
         "City":"Chicago",
         "State":"IL",
         "Zip":95765,
         "Phone":"(916) 782-2989",
         "Latitude":38.7952177,
         "Longitude":-121.3632966,
         "DisplayImage":"img/h_1.jpg",
         "LogoImage":"img/L_1.png",
         "fromdate":"1477765800",
         "todate":"1478111400"
      },
      "61":{  
         "Name":"Crowne Plaza Chicago",
         "Rating":2,
         "Address1":"3133 Windy Circle Rd",
         "Address2":"",
         "City":"Chicago",
         "State":"IL",
         "Zip":95765,
         "Phone":"(916) 782-2989",
         "Latitude":38.7952177,
         "Longitude":-121.3632966,
         "DisplayImage":"img/h_1.jpg",
         "LogoImage":"img/L_1.png",
         "fromdate":"1477765800",
         "todate":"1478111400"
      },
      "62":{  
         "Name":"Residence Inn Chicago",
         "Rating":2,
         "Address1":"3133 Windy Circle Rd",
         "Address2":"",
         "City":"Chicago",
         "State":"IL",
         "Zip":95765,
         "Phone":"(916) 782-2989",
         "Latitude":38.7952177,
         "Longitude":-121.3632966,
         "DisplayImage":"img/h_2.jpg",
         "LogoImage":"img/L_2.png",
         "fromdate":"1477765800",
         "todate":"1478111400"
      },
      "63":{  
         "Name":"Courtyard Chicago",
         "Rating":2,
         "Address1":"3133 Windy Circle Rd",
         "Address2":"",
         "City":"Chicago",
         "State":"IL",
         "Zip":95765,
         "Phone":"(916) 782-2989",
         "Latitude":38.7952177,
         "Longitude":-121.3632966,
         "DisplayImage":"img/h_3.jpg",
         "LogoImage":"img/L_3.png",
         "fromdate":"1477765800",
         "todate":"1478111400"
      },
      "64":{  
         "Name":"Crowne Plaza Chicago",
         "Rating":2,
         "Address1":"3133 Windy Circle Rd",
         "Address2":"",
         "City":"Chicago",
         "State":"IL",
         "Zip":95765,
         "Phone":"(916) 782-2989",
         "Latitude":38.7952177,
         "Longitude":-121.3632966,
         "DisplayImage":"img/h_1.jpg",
         "LogoImage":"img/L_1.png",
         "fromdate":"1477765800",
         "todate":"1478111400"
      },
      "65":{  
         "Name":"Crowne Plaza Chicago",
         "Rating":3,
         "Address1":"3133 Windy Circle Rd",
         "Address2":"",
         "City":"Chicago",
         "State":"IL",
         "Zip":95765,
         "Phone":"(916) 782-2989",
         "Latitude":38.7952177,
         "Longitude":-121.3632966,
         "DisplayImage":"img/h_1.jpg",
         "LogoImage":"img/L_1.png",
         "fromdate":"1477765800",
         "todate":"1478111400"
      },
      "66":{  
         "Name":"Residence Inn Chicago",
         "Rating":3,
         "Address1":"3133 Windy Circle Rd",
         "Address2":"",
         "City":"Chicago",
         "State":"IL",
         "Zip":95765,
         "Phone":"(916) 782-2989",
         "Latitude":38.7952177,
         "Longitude":-121.3632966,
         "DisplayImage":"img/h_2.jpg",
         "LogoImage":"img/L_2.png",
         "fromdate":"1477765800",
         "todate":"1478111400"
      },
      "67":{  
         "Name":"Courtyard Chicago",
         "Rating":3,
         "Address1":"3133 Windy Circle Rd",
         "Address2":"",
         "City":"Chicago",
         "State":"IL",
         "Zip":95765,
         "Phone":"(916) 782-2989",
         "Latitude":38.7952177,
         "Longitude":-121.3632966,
         "DisplayImage":"img/h_3.jpg",
         "LogoImage":"img/L_3.png",
         "fromdate":"1477765800",
         "todate":"1478111400"
      },
      "68":{  
         "Name":"Crowne Plaza Chicago",
         "Rating":3,
         "Address1":"3133 Windy Circle Rd",
         "Address2":"",
         "City":"Chicago",
         "State":"IL",
         "Zip":95765,
         "Phone":"(916) 782-2989",
         "Latitude":38.7952177,
         "Longitude":-121.3632966,
         "DisplayImage":"img/h_1.jpg",
         "LogoImage":"img/L_1.png",
         "fromdate":"1477765800",
         "todate":"1478111400"
      },
      "69":{  
         "Name":"Crowne Plaza Chicago",
         "Rating":4,
         "Address1":"3133 Windy Circle Rd",
         "Address2":"",
         "City":"Chicago",
         "State":"IL",
         "Zip":95765,
         "Phone":"(916) 782-2989",
         "Latitude":38.7952177,
         "Longitude":-121.3632966,
         "DisplayImage":"img/h_1.jpg",
         "LogoImage":"img/L_1.png",
         "fromdate":"1477765800",
         "todate":"1478111400"
      },
      "70":{  
         "Name":"Residence Inn Chicago",
         "Rating":4,
         "Address1":"3133 Windy Circle Rd",
         "Address2":"",
         "City":"Chicago",
         "State":"IL",
         "Zip":95765,
         "Phone":"(916) 782-2989",
         "Latitude":38.7952177,
         "Longitude":-121.3632966,
         "DisplayImage":"img/h_2.jpg",
         "LogoImage":"img/L_2.png",
         "fromdate":"1477765800",
         "todate":"1478111400"
      },
      "71":{  
         "Name":"Courtyard Chicago",
         "Rating":4,
         "Address1":"3133 Windy Circle Rd",
         "Address2":"",
         "City":"Chicago",
         "State":"IL",
         "Zip":95765,
         "Phone":"(916) 782-2989",
         "Latitude":38.7952177,
         "Longitude":-121.3632966,
         "DisplayImage":"img/h_3.jpg",
         "LogoImage":"img/L_3.png",
         "fromdate":"1477765800",
         "todate":"1478111400"
      },
      "72":{  
         "Name":"Crowne Plaza Chicago",
         "Rating":4,
         "Address1":"3133 Windy Circle Rd",
         "Address2":"",
         "City":"Chicago",
         "State":"IL",
         "Zip":95765,
         "Phone":"(916) 782-2989",
         "Latitude":38.7952177,
         "Longitude":-121.3632966,
         "DisplayImage":"img/h_1.jpg",
         "LogoImage":"img/L_1.png",
         "fromdate":"1477765800",
         "todate":"1478111400"
      },
      "73":{  
         "Name":"Crowne Plaza Chicago",
         "Rating":5,
         "Address1":"3133 Windy Circle Rd",
         "Address2":"",
         "City":"Chicago",
         "State":"IL",
         "Zip":95765,
         "Phone":"(916) 782-2989",
         "Latitude":38.7952177,
         "Longitude":-121.3632966,
         "DisplayImage":"img/h_1.jpg",
         "LogoImage":"img/L_1.png",
         "fromdate":"1477765800",
         "todate":"1478111400"
      },
      "74":{  
         "Name":"Residence Inn Chicago",
         "Rating":5,
         "Address1":"3133 Windy Circle Rd",
         "Address2":"",
         "City":"Chicago",
         "State":"IL",
         "Zip":95765,
         "Phone":"(916) 782-2989",
         "Latitude":38.7952177,
         "Longitude":-121.3632966,
         "DisplayImage":"img/h_2.jpg",
         "LogoImage":"img/L_2.png",
         "fromdate":"1477765800",
         "todate":"1478111400"
      },
      "75":{  
         "Name":"Courtyard Chicago",
         "Rating":5,
         "Address1":"3133 Windy Circle Rd",
         "Address2":"",
         "City":"Chicago",
         "State":"IL",
         "Zip":95765,
         "Phone":"(916) 782-2989",
         "Latitude":38.7952177,
         "Longitude":-121.3632966,
         "DisplayImage":"img/h_3.jpg",
         "LogoImage":"img/L_3.png",
         "fromdate":"1477765800",
         "todate":"1478111400"
      },
      "76":{  
         "Name":"Crowne Plaza Chicago",
         "Rating":5,
         "Address1":"3133 Windy Circle Rd",
         "Address2":"",
         "City":"Chicago",
         "State":"IL",
         "Zip":95765,
         "Phone":"(916) 782-2989",
         "Latitude":38.7952177,
         "Longitude":-121.3632966,
         "DisplayImage":"img/h_1.jpg",
         "LogoImage":"img/L_1.png",
         "fromdate":"1477765800",
         "todate":"1478111400"
      },
      "77":{  
         "Name":"Crowne Plaza Atlanta",
         "Rating":1,
         "Address1":"1234 Casino Ave",
         "Address2":"",
         "City":"Atlanta",
         "State":"GA",
         "Zip":95765,
         "Phone":"(916) 782-2989",
         "Latitude":38.7952177,
         "Longitude":-121.3632966,
         "DisplayImage":"img/h_1.jpg",
         "LogoImage":"img/L_1.png",
         "fromdate":"1477765800",
         "todate":"1478111400"
      },
      "78":{  
         "Name":"Residence Inn Atlanta",
         "Rating":1,
         "Address1":"1234 Casino Ave",
         "Address2":"",
         "City":"Atlanta",
         "State":"GA",
         "Zip":95765,
         "Phone":"(916) 782-2989",
         "Latitude":38.7952177,
         "Longitude":-121.3632966,
         "DisplayImage":"img/h_2.jpg",
         "LogoImage":"img/L_2.png",
         "fromdate":"1477765800",
         "todate":"1478111400"
      },
      "79":{  
         "Name":"Courtyard Atlanta",
         "Rating":1,
         "Address1":"1234 Casino Ave",
         "Address2":"",
         "City":"Atlanta",
         "State":"GA",
         "Zip":95765,
         "Phone":"(916) 782-2989",
         "Latitude":38.7952177,
         "Longitude":-121.3632966,
         "DisplayImage":"img/h_3.jpg",
         "LogoImage":"img/L_3.png",
         "fromdate":"1477765800",
         "todate":"1478111400"
      },
      "80":{  
         "Name":"Crowne Plaza Atlanta",
         "Rating":1,
         "Address1":"1234 Casino Ave",
         "Address2":"",
         "City":"Atlanta",
         "State":"GA",
         "Zip":95765,
         "Phone":"(916) 782-2989",
         "Latitude":38.7952177,
         "Longitude":-121.3632966,
         "DisplayImage":"img/h_1.jpg",
         "LogoImage":"img/L_1.png",
         "fromdate":"1477765800",
         "todate":"1478111400"
      },
      "81":{  
         "Name":"Crowne Plaza Atlanta",
         "Rating":2,
         "Address1":"1234 Casino Ave",
         "Address2":"",
         "City":"Atlanta",
         "State":"GA",
         "Zip":95765,
         "Phone":"(916) 782-2989",
         "Latitude":38.7952177,
         "Longitude":-121.3632966,
         "DisplayImage":"img/h_1.jpg",
         "LogoImage":"img/L_1.png",
         "fromdate":"1477765800",
         "todate":"1478111400"
      },
      "82":{  
         "Name":"Residence Inn Atlanta",
         "Rating":2,
         "Address1":"1234 Casino Ave",
         "Address2":"",
         "City":"Atlanta",
         "State":"GA",
         "Zip":95765,
         "Phone":"(916) 782-2989",
         "Latitude":38.7952177,
         "Longitude":-121.3632966,
         "DisplayImage":"img/h_2.jpg",
         "LogoImage":"img/L_2.png",
         "fromdate":"1477765800",
         "todate":"1478111400"
      },
      "83":{  
         "Name":"Courtyard Atlanta",
         "Rating":2,
         "Address1":"1234 Casino Ave",
         "Address2":"",
         "City":"Atlanta",
         "State":"GA",
         "Zip":95765,
         "Phone":"(916) 782-2989",
         "Latitude":38.7952177,
         "Longitude":-121.3632966,
         "DisplayImage":"img/h_3.jpg",
         "LogoImage":"img/L_3.png",
         "fromdate":"1477765800",
         "todate":"1478111400"
      },
      "84":{  
         "Name":"Crowne Plaza Atlanta",
         "Rating":2,
         "Address1":"1234 Casino Ave",
         "Address2":"",
         "City":"Atlanta",
         "State":"GA",
         "Zip":95765,
         "Phone":"(916) 782-2989",
         "Latitude":38.7952177,
         "Longitude":-121.3632966,
         "DisplayImage":"img/h_1.jpg",
         "LogoImage":"img/L_1.png",
         "fromdate":"1477765800",
         "todate":"1478111400"
      },
      "85":{  
         "Name":"Crowne Plaza Atlanta",
         "Rating":3,
         "Address1":"1234 Casino Ave",
         "Address2":"",
         "City":"Atlanta",
         "State":"GA",
         "Zip":95765,
         "Phone":"(916) 782-2989",
         "Latitude":38.7952177,
         "Longitude":-121.3632966,
         "DisplayImage":"img/h_1.jpg",
         "LogoImage":"img/L_1.png",
         "fromdate":"1477765800",
         "todate":"1478111400"
      },
      "86":{  
         "Name":"Residence Inn Atlanta",
         "Rating":3,
         "Address1":"1234 Casino Ave",
         "Address2":"",
         "City":"Atlanta",
         "State":"GA",
         "Zip":95765,
         "Phone":"(916) 782-2989",
         "Latitude":38.7952177,
         "Longitude":-121.3632966,
         "DisplayImage":"img/h_2.jpg",
         "LogoImage":"img/L_2.png",
         "fromdate":"1477765800",
         "todate":"1478111400"
      },
      "87":{  
         "Name":"Courtyard Atlanta",
         "Rating":3,
         "Address1":"1234 Casino Ave",
         "Address2":"",
         "City":"Atlanta",
         "State":"GA",
         "Zip":95765,
         "Phone":"(916) 782-2989",
         "Latitude":38.7952177,
         "Longitude":-121.3632966,
         "DisplayImage":"img/h_3.jpg",
         "LogoImage":"img/L_3.png",
         "fromdate":"1477765800",
         "todate":"1478111400"
      },
      "88":{  
         "Name":"Crowne Plaza Atlanta",
         "Rating":3,
         "Address1":"1234 Casino Ave",
         "Address2":"",
         "City":"Atlanta",
         "State":"GA",
         "Zip":95765,
         "Phone":"(916) 782-2989",
         "Latitude":38.7952177,
         "Longitude":-121.3632966,
         "DisplayImage":"img/h_1.jpg",
         "LogoImage":"img/L_1.png",
         "fromdate":"1477765800",
         "todate":"1478111400"
      },
      "89":{  
         "Name":"Crowne Plaza Atlanta",
         "Rating":4,
         "Address1":"1234 Casino Ave",
         "Address2":"",
         "City":"Atlanta",
         "State":"GA",
         "Zip":95765,
         "Phone":"(916) 782-2989",
         "Latitude":38.7952177,
         "Longitude":-121.3632966,
         "DisplayImage":"img/h_1.jpg",
         "LogoImage":"img/L_1.png",
         "fromdate":"1477765800",
         "todate":"1478111400"
      },
      "90":{  
         "Name":"Residence Inn Atlanta",
         "Rating":4,
         "Address1":"1234 Casino Ave",
         "Address2":"",
         "City":"Atlanta",
         "State":"GA",
         "Zip":95765,
         "Phone":"(916) 782-2989",
         "Latitude":38.7952177,
         "Longitude":-121.3632966,
         "DisplayImage":"img/h_2.jpg",
         "LogoImage":"img/L_2.png",
         "fromdate":"1477765800",
         "todate":"1478111400"
      },
      "91":{  
         "Name":"Courtyard Atlanta",
         "Rating":4,
         "Address1":"1234 Casino Ave",
         "Address2":"",
         "City":"Atlanta",
         "State":"GA",
         "Zip":95765,
         "Phone":"(916) 782-2989",
         "Latitude":38.7952177,
         "Longitude":-121.3632966,
         "DisplayImage":"img/h_3.jpg",
         "LogoImage":"img/L_3.png",
         "fromdate":"1477765800",
         "todate":"1478111400"
      },
      "92":{  
         "Name":"Crowne Plaza Atlanta",
         "Rating":4,
         "Address1":"1234 Casino Ave",
         "Address2":"",
         "City":"Atlanta",
         "State":"GA",
         "Zip":95765,
         "Phone":"(916) 782-2989",
         "Latitude":38.7952177,
         "Longitude":-121.3632966,
         "DisplayImage":"img/h_1.jpg",
         "LogoImage":"img/L_1.png",
         "fromdate":"1477765800",
         "todate":"1478111400"
      },
      "93":{  
         "Name":"Crowne Plaza Atlanta",
         "Rating":5,
         "Address1":"1234 Casino Ave",
         "Address2":"",
         "City":"Atlanta",
         "State":"GA",
         "Zip":95765,
         "Phone":"(916) 782-2989",
         "Latitude":38.7952177,
         "Longitude":-121.3632966,
         "DisplayImage":"img/h_1.jpg",
         "LogoImage":"img/L_1.png",
         "fromdate":"1477765800",
         "todate":"1478111400"
      },
      "94":{  
         "Name":"Residence Inn Atlanta",
         "Rating":5,
         "Address1":"1234 Casino Ave",
         "Address2":"",
         "City":"Atlanta",
         "State":"GA",
         "Zip":95765,
         "Phone":"(916) 782-2989",
         "Latitude":38.7952177,
         "Longitude":-121.3632966,
         "DisplayImage":"img/h_2.jpg",
         "LogoImage":"img/L_2.png",
         "fromdate":"1477765800",
         "todate":"1478111400"
      },
      "95":{  
         "Name":"Courtyard Atlanta",
         "Rating":5,
         "Address1":"1234 Casino Ave",
         "Address2":"",
         "City":"Atlanta",
         "State":"GA",
         "Zip":95765,
         "Phone":"(916) 782-2989",
         "Latitude":38.7952177,
         "Longitude":-121.3632966,
         "DisplayImage":"img/h_3.jpg",
         "LogoImage":"img/L_3.png",
         "fromdate":"1477765800",
         "todate":"1478111400"
      },
      "96":{  
         "Name":"Crowne Plaza Atlanta",
         "Rating":5,
         "Address1":"1234 Casino Ave",
         "Address2":"",
         "City":"Atlanta",
         "State":"GA",
         "Zip":95765,
         "Phone":"(916) 782-2989",
         "Latitude":38.7952177,
         "Longitude":-121.3632966,
         "DisplayImage":"img/h_1.jpg",
         "LogoImage":"img/L_1.png",
         "fromdate":"1477765800",
         "todate":"1478111400"
      }
   },
   "users":{  
      "1":{  
         "Name":"test",
         "email":"test@test.com",
         "password":"password"
      }
   }
}