[
    {
        "Address1" : "10593 Fairway Dr",
        "Address2" : "",
        "City" : "Roseville",
        "DisplayImage" : "img/h_1.jpg",
        "Latitude" : 38.7952177,
        "Longitude" : -121.3632966,
        "Name" : "Hotel1",
        "Phone" : "(916) 782-2989",
        "Rating" : 3,
        "State" : "CA",
        "Zip" : 95765,
        "fromdate" : "1480464000",
        "icons" : "img/l_1.png",
        "todate" : "1480464000"
    },
    {
        "Address1" : "8058 Orchard Loop Ln",
        "Address2" : "",
        "City" : "Sacramento",
        "DisplayImage" : "img/h_2.jpg",
        "Latitude" : 38.4549012,
        "Longitude" : -121.477788,
        "Name" : "Hotel2",
        "Phone" : 0,
        "Rating" : 1,
        "State" : "CA",
        "Zip" : 95624,
        "fromdate" : "1480464000",
        "icons" : "img/l_2.png",
        "todate" : "1480464000"
    },
    {
        "Address1" : "4422 Y St",
        "Address2" : "",
        "City" : "Sacramento",
        "DisplayImage" : "img/h_3.jpg",
        "Latitude" : 38.5520671,
        "Longitude" : -121.524234,
        "Name" : "Hotel3",
        "Phone" : 0,
        "Rating" : 2,
        "State" : "CA",
        "Zip" : 95817,
        "fromdate" : "1480464000",
        "icons" : "img/l_3.png",
        "todate" : "1480464000"
    },
    {
        "Address1" : "2101 River Plaza Dr",
        "Address2" : "",
        "City" : "Sacramento",
        "DisplayImage" : "img/h_1.jpg",
        "Latitude" : 38.6052531,
        "Longitude" : -121.581428,
        "Name" : "Courtyard Sacramento Airport Natomas",
        "Phone" : "(916) 922-1120",
        "Rating" : 3,
        "State" : "CA",
        "Zip" : 95833,
        "fromdate" : "1480464000",
        "icons" : "img/l_1.png",
        "todate" : "1480464000"
    },
    {
        "Address1" : "1780 Tribute Rd",
        "Address2" : "",
        "City" : "Sacramento",
        "DisplayImage" : "img/h_2.jpg",
        "Latitude" : 38.5967961,
        "Longitude" : -121.516802,
        "Name" : "Fairfield Inn Sacramento Cal Expo",
        "Phone" : "(916) 920-5300",
        "Rating" : 4,
        "State" : "CA",
        "Zip" : 95815,
        "fromdate" : "1480464000",
        "icons" : "img/l_2.png",
        "todate" : "1480464000"
    },
    {
        "Address1" : "10593 Fairway Dr",
        "Address2" : "",
        "City" : "Sacramento",
        "DisplayImage" : "img/h_1.jpg",
        "Latitude" : 38.7952177,
        "Longitude" : -121.3632966,
        "Name" : "SpringHill Suites Sacramento Roseville",
        "Phone" : "(916) 782-2989",
        "Rating" : 5,
        "State" : "CA",
        "Zip" : 95765,
        "fromdate" : "1480464000",
        "icons" : "img/l_1.png",
        "threshold" : 700,
        "todate" : "1480464000"
    },
    {
        "Address1" : "8058 Orchard Loop Ln",
        "Address2" : "",
        "City" : "Sacramento",
        "DisplayImage" : "img/h_2.jpg",
        "Latitude" : 38.4549012,
        "Longitude" : -121.477788,
        "Name" : "Fairfield Inn & Suites Sacramento Elk Grove",
        "Phone" : 0,
        "Rating" : 1,
        "State" : "KY",
        "Zip" : 95624,
        "fromdate" : "1480464000",
        "icons" : "img/l_2.png",
        "todate" : "1480464000"
    },
    {
        "Address1" : "4422 Y St",
        "Address2" : "",
        "City" : "Sacramento",
        "DisplayImage" : "img/h_3.jpg",
        "Latitude" : 38.5520671,
        "Longitude" : -121.524234,
        "Name" : "Courtyard Sacramento Midtown",
        "Phone" : 0,
        "Rating" : 2,
        "State" : "KY",
        "Zip" : 95817,
        "fromdate" : "1480464000",
        "icons" : "img/l_1.png",
        "todate" : "1480464000"
    },
    {
        "Address1" : "2101 River Plaza Dr",
        "Address2" : "",
        "City" : "Sacramento",
        "DisplayImage" : "img/h_1.jpg",
        "Latitude" : 38.6052531,
        "Longitude" : -121.581428,
        "Name" : "Courtyard Sacramento Airport Natomas",
        "Phone" : "(916) 922-1120",
        "Rating" : 3,
        "State" : "KY",
        "Zip" : 95833,
        "fromdate" : "1480464000",
        "icons" : "img/l_1.png",
        "todate" : "1480464000"
    },
    {
        "Address1" : "1780 Tribute Rd",
        "Address2" : "",
        "City" : "Sacramento",
        "DisplayImage" : "img/h_2.jpg",
        "Latitude" : 38.5967961,
        "Longitude" : -121.516802,
        "Name" : "Fairfield Inn Sacramento Cal Expo",
        "Phone" : "(916) 920-5300",
        "Rating" : 4,
        "State" : "KY",
        "Zip" : 95815,
        "fromdate" : "1480464000",
        "icons" : "img/l_1.png",
        "todate" : "1480464000"
    },
    {
        "Address1" : "10683 White Rock Rd",
        "Address2" : "",
        "City" : "Sacramento",
        "DisplayImage" : "img/h_1.jpg",
        "Latitude" : 38.5876275,
        "Longitude" : -121.3601292,
        "Name" : "Courtyard Sacramento Rancho Cordova",
        "Phone" : "(916) 638-3800",
        "Rating" : 5,
        "State" : "KY",
        "Zip" : 95670,
        "fromdate" : "1480464000",
        "icons" : "img/l_1.png",
        "todate" : "1480464000"
    },
    {
        "Address1" : "10593 Fairway Dr",
        "Address2" : "",
        "City" : "Sacramento",
        "DisplayImage" : "img/h_1.jpg",
        "Latitude" : 38.7952177,
        "Longitude" : -121.3632966,
        "Name" : "SpringHill Suites Sacramento Roseville",
        "Phone" : "(916) 782-2989",
        "Rating" : 1,
        "State" : "TX",
        "Zip" : 95765,
        "fromdate" : "1480464000",
        "icons" : "img/l_1.png",
        "todate" : "1480464000"
    },
    {
        "Address1" : "8058 Orchard Loop Ln",
        "Address2" : "",
        "City" : "Sacramento",
        "DisplayImage" : "img/h_2.jpg",
        "Latitude" : 38.4549012,
        "Longitude" : -121.477788,
        "Name" : "Fairfield Inn & Suites Sacramento Elk Grove",
        "Phone" : 0,
        "Rating" : 2,
        "State" : "TX",
        "Zip" : 95624,
        "fromdate" : "1480464000",
        "icons" : "img/l_1.png",
        "todate" : "1480464000"
    },
    {
        "Address1" : "4422 Y St",
        "Address2" : "",
        "City" : "Sacramento",
        "DisplayImage" : "img/h_3.jpg",
        "Latitude" : 38.5520671,
        "Longitude" : -121.524234,
        "Name" : "Courtyard Sacramento Midtown",
        "Phone" : 0,
        "Rating" : 3,
        "State" : "TX",
        "Zip" : 95817,
        "fromdate" : "1480464000",
        "icons" : "img/l_1.png",
        "todate" : "1480464000"
    },
    {
        "Address1" : "2101 River Plaza Dr",
        "Address2" : "",
        "City" : "Sacramento",
        "DisplayImage" : "img/h_1.jpg",
        "Latitude" : 38.6052531,
        "Longitude" : -121.581428,
        "Name" : "Courtyard Sacramento Airport Natomas",
        "Phone" : "(916) 922-1120",
        "Rating" : 4,
        "State" : "TX",
        "Zip" : 95833,
        "fromdate" : "1477765800",
        "icons" : "img/l_1.png",
        "todate" : "1480464000"
    },
    {
        "Address1" : "1780 Tribute Rd",
        "Address2" : "",
        "City" : "Sacramento",
        "DisplayImage" : "img/h_2.jpg",
        "Latitude" : 38.5967961,
        "Longitude" : -121.516802,
        "Name" : "Fairfield Inn Sacramento Cal Expo",
        "Phone" : "(916) 920-5300",
        "Rating" : 5,
        "State" : "TX",
        "Zip" : 95815,
        "fromdate" : "1480464000",
        "icons" : "img/l_1.png",
        "todate" : "1480464000"
    }
]